{
  "type": "FeatureCollection",
  "features": [
    {
      "type": "Feature",
      "geometry": {
        "type": "Point",
        "coordinates": [
          121.651497,
          24.665884
        ]
      },
      "properties": {
        "id": "1580909152165",
        "name": "三星健保藥局",
        "poiId": "5934100030",
        "poiName": "三星健保藥局",
        "city": "宜蘭縣",
        "area": "",
        "address": "宜蘭縣三星鄉三星路5段51號",
        "telNo": "03-9895816",
        "hospAlliance": "",
        "endContract": false
      }
    },
    {
      "type": "Feature",
      "geometry": {
        "type": "Point",
        "coordinates": [
          121.770324,
          24.690805
        ]
      },
      "properties": {
        "id": "1580909152165",
        "name": "新安藥局",
        "poiId": "5934091072",
        "poiName": "新安藥局",
        "city": "宜蘭縣",
        "area": "",
        "address": "宜蘭縣五結鄉中正路1段170號1樓",
        "telNo": "03-9566377",
        "hospAlliance": "",
        "endContract": false
      }
    },
    {
      "type": "Feature",
      "geometry": {
        "type": "Point",
        "coordinates": [
          121.769018,
          24.696551
        ]
      },
      "properties": {
        "id": "1580909152165",
        "name": "日昇藥局",
        "poiId": "5934091054",
        "poiName": "日昇藥局",
        "city": "宜蘭縣",
        "area": "",
        "address": "宜蘭縣五結鄉中正路2段59號",
        "telNo": "03-9656584",
        "hospAlliance": "",
        "endContract": false
      }
    },
    {
      "type": "Feature",
      "geometry": {
        "type": "Point",
        "coordinates": [
          121.797691,
          24.685608
        ]
      },
      "properties": {
        "id": "1580909152165",
        "name": "平安藥局",
        "poiId": "5934091090",
        "poiName": "平安藥局",
        "city": "宜蘭縣",
        "area": "",
        "address": "宜蘭縣五結鄉五結中路2段23號",
        "telNo": "03-9603265",
        "hospAlliance": "",
        "endContract": false
      }
    },
    {
      "type": "Feature",
      "geometry": {
        "type": "Point",
        "coordinates": [
          121.795761,
          24.68437
        ]
      },
      "properties": {
        "id": "1580909152165",
        "name": "五結健保藥局",
        "poiId": "5934091081",
        "poiName": "五結健保藥局",
        "city": "宜蘭縣",
        "area": "",
        "address": "宜蘭縣五結鄉五結路二段437號",
        "telNo": "03-9503200",
        "hospAlliance": "",
        "endContract": false
      }
    },
    {
      "type": "Feature",
      "geometry": {
        "type": "Point",
        "coordinates": [
          121.7768035,
          24.6810477
        ]
      },
      "properties": {
        "id": "1580909152165",
        "name": "安心藥局",
        "poiId": "5934091125",
        "poiName": "安心藥局",
        "city": "宜蘭縣",
        "area": "",
        "address": "宜蘭縣五結鄉禮運路38－1號",
        "telNo": "03-9551670",
        "hospAlliance": "",
        "endContract": false
      }
    },
    {
      "type": "Feature",
      "geometry": {
        "type": "Point",
        "coordinates": [
          null,
          null
        ]
      },
      "properties": {
        "id": "1580909152165",
        "name": "杏東藥師藥局",
        "poiId": "5934080024",
        "poiName": "杏東藥師藥局",
        "city": "宜蘭縣",
        "area": "",
        "address": "宜蘭縣冬山鄉冬山路218號1樓",
        "telNo": "03-9591024",
        "hospAlliance": "",
        "endContract": false
      }
    },
    {
      "type": "Feature",
      "geometry": {
        "type": "Point",
        "coordinates": [
          121.790732,
          24.63453
        ]
      },
      "properties": {
        "id": "1580909152165",
        "name": "威仁藥局",
        "poiId": "5934081067",
        "poiName": "威仁藥局",
        "city": "宜蘭縣",
        "area": "",
        "address": "宜蘭縣冬山鄉冬山路219號",
        "telNo": "03-9595351",
        "hospAlliance": "",
        "endContract": false
      }
    },
    {
      "type": "Feature",
      "geometry": {
        "type": "Point",
        "coordinates": [
          121.770981,
          24.667137
        ]
      },
      "properties": {
        "id": "1580909152165",
        "name": "華康藥局",
        "poiId": "5934081058",
        "poiName": "華康藥局",
        "city": "宜蘭縣",
        "area": "",
        "address": "宜蘭縣冬山鄉冬山路5段202號1樓",
        "telNo": "03-9532942",
        "hospAlliance": "",
        "endContract": false
      }
    },
    {
      "type": "Feature",
      "geometry": {
        "type": "Point",
        "coordinates": [
          121.79142,
          24.634553
        ]
      },
      "properties": {
        "id": "1580909152165",
        "name": "康佑藥局",
        "poiId": "5934081147",
        "poiName": "康佑藥局",
        "city": "宜蘭縣",
        "area": "",
        "address": "宜蘭縣冬山鄉南興村冬山路134號",
        "telNo": "03-9591994",
        "hospAlliance": "",
        "endContract": false
      }
    },
    {
      "type": "Feature",
      "geometry": {
        "type": "Point",
        "coordinates": [
          null,
          null
        ]
      },
      "properties": {
        "id": "1580909152165",
        "name": "和康藥局",
        "poiId": "5934081174",
        "poiName": "和康藥局",
        "city": "宜蘭縣",
        "area": "",
        "address": "宜蘭縣冬山鄉義成路3段351號1樓",
        "telNo": "03-9680650",
        "hospAlliance": "",
        "endContract": false
      }
    },
    {
      "type": "Feature",
      "geometry": {
        "type": "Point",
        "coordinates": [
          121.767895,
          24.667183
        ]
      },
      "properties": {
        "id": "1580909152165",
        "name": "佳恩藥局",
        "poiId": "5934080015",
        "poiName": "佳恩藥局",
        "city": "宜蘭縣",
        "area": "",
        "address": "宜蘭縣冬山鄉義成路3段401號",
        "telNo": "03-9586065",
        "hospAlliance": "",
        "endContract": false
      }
    },
    {
      "type": "Feature",
      "geometry": {
        "type": "Point",
        "coordinates": [
          121.768732,
          24.669503
        ]
      },
      "properties": {
        "id": "1580909152165",
        "name": "德鑫藥局",
        "poiId": "5934081049",
        "poiName": "德鑫藥局",
        "city": "宜蘭縣",
        "area": "",
        "address": "宜蘭縣冬山鄉義成路3段475號1樓",
        "telNo": "03-9559868",
        "hospAlliance": "",
        "endContract": false
      }
    },
    {
      "type": "Feature",
      "geometry": {
        "type": "Point",
        "coordinates": [
          121.768156,
          24.667453
        ]
      },
      "properties": {
        "id": "1580909152165",
        "name": "樂心藥局",
        "poiId": "5934081156",
        "poiName": "樂心藥局",
        "city": "宜蘭縣",
        "area": "",
        "address": "宜蘭縣冬山鄉義成路3段502號",
        "telNo": "03-9585950",
        "hospAlliance": "",
        "endContract": false
      }
    },
    {
      "type": "Feature",
      "geometry": {
        "type": "Point",
        "coordinates": [
          121.76391,
          24.654651
        ]
      },
      "properties": {
        "id": "1580909152165",
        "name": "義成藥局",
        "poiId": "5934081129",
        "poiName": "義成藥局",
        "city": "宜蘭縣",
        "area": "",
        "address": "宜蘭縣冬山鄉義成路二段373號1樓",
        "telNo": "03-9588775",
        "hospAlliance": "",
        "endContract": false
      }
    },
    {
      "type": "Feature",
      "geometry": {
        "type": "Point",
        "coordinates": [
          121.7488506,
          24.6696649
        ]
      },
      "properties": {
        "id": "1580909152165",
        "name": "合康藥局",
        "poiId": "5934081165",
        "poiName": "合康藥局",
        "city": "宜蘭縣",
        "area": "",
        "address": "宜蘭縣冬山鄉廣興路213號",
        "telNo": "03-9616457",
        "hospAlliance": "",
        "endContract": false
      }
    },
    {
      "type": "Feature",
      "geometry": {
        "type": "Point",
        "coordinates": [
          121.785375,
          24.746429
        ]
      },
      "properties": {
        "id": "1580909152165",
        "name": "壯圍藥局",
        "poiId": "5934061047",
        "poiName": "壯圍藥局",
        "city": "宜蘭縣",
        "area": "",
        "address": "宜蘭縣壯圍鄉吉祥村壯五路279號",
        "telNo": "03-9388948",
        "hospAlliance": "",
        "endContract": false
      }
    },
    {
      "type": "Feature",
      "geometry": {
        "type": "Point",
        "coordinates": [
          121.756953,
          24.756138
        ]
      },
      "properties": {
        "id": "1580909152165",
        "name": "宜蘭和睦藥局",
        "poiId": "5934012179",
        "poiName": "宜蘭和睦藥局",
        "city": "宜蘭縣",
        "area": "",
        "address": "宜蘭縣宜蘭市大新里和睦路47號1、2樓",
        "telNo": "03-9313622",
        "hospAlliance": "",
        "endContract": false
      }
    },
    {
      "type": "Feature",
      "geometry": {
        "type": "Point",
        "coordinates": [
          121.753471,
          24.750557
        ]
      },
      "properties": {
        "id": "1580909152165",
        "name": "李藥局",
        "poiId": "5934011510",
        "poiName": "李藥局",
        "city": "宜蘭縣",
        "area": "",
        "address": "宜蘭縣宜蘭市中山路2段211號",
        "telNo": "03-9362234",
        "hospAlliance": "",
        "endContract": false
      }
    },
    {
      "type": "Feature",
      "geometry": {
        "type": "Point",
        "coordinates": [
          121.753387,
          24.750772
        ]
      },
      "properties": {
        "id": "1580909152165",
        "name": "如康藥局",
        "poiId": "5934011725",
        "poiName": "如康藥局",
        "city": "宜蘭縣",
        "area": "",
        "address": "宜蘭縣宜蘭市中山路2段223號1樓",
        "telNo": "03-9358647",
        "hospAlliance": "",
        "endContract": false
      }
    },
    {
      "type": "Feature",
      "geometry": {
        "type": "Point",
        "coordinates": [
          121.752302,
          24.753695
        ]
      },
      "properties": {
        "id": "1580909152165",
        "name": "欣悅藥局",
        "poiId": "5934012008",
        "poiName": "欣悅藥局",
        "city": "宜蘭縣",
        "area": "",
        "address": "宜蘭縣宜蘭市中山路2段303號",
        "telNo": "03-9321002",
        "hospAlliance": "",
        "endContract": false
      }
    },
    {
      "type": "Feature",
      "geometry": {
        "type": "Point",
        "coordinates": [
          121.752209,
          24.754043
        ]
      },
      "properties": {
        "id": "1580909152165",
        "name": "吉祥大藥局",
        "poiId": "5934011887",
        "poiName": "吉祥大藥局",
        "city": "宜蘭縣",
        "area": "",
        "address": "宜蘭縣宜蘭市中山路2段311號1樓",
        "telNo": "03-9327811",
        "hospAlliance": "",
        "endContract": false
      }
    },
    {
      "type": "Feature",
      "geometry": {
        "type": "Point",
        "coordinates": [
          121.753681,
          24.750667
        ]
      },
      "properties": {
        "id": "1580909152165",
        "name": "慈幼藥局",
        "poiId": "5934012160",
        "poiName": "慈幼藥局",
        "city": "宜蘭縣",
        "area": "",
        "address": "宜蘭縣宜蘭市中山路2段360號1樓",
        "telNo": "03-9321238",
        "hospAlliance": "",
        "endContract": false
      }
    },
    {
      "type": "Feature",
      "geometry": {
        "type": "Point",
        "coordinates": [
          121.755447,
          24.744896
        ]
      },
      "properties": {
        "id": "1580909152165",
        "name": "佳音藥局",
        "poiId": "5934012197",
        "poiName": "佳音藥局",
        "city": "宜蘭縣",
        "area": "",
        "address": "宜蘭縣宜蘭市中山路2段59號1樓",
        "telNo": "03-9362869",
        "hospAlliance": "",
        "endContract": false
      }
    },
    {
      "type": "Feature",
      "geometry": {
        "type": "Point",
        "coordinates": [
          121.75307,
          24.760056
        ]
      },
      "properties": {
        "id": "1580909152165",
        "name": "振芳藥局",
        "poiId": "5934010022",
        "poiName": "振芳藥局",
        "city": "宜蘭縣",
        "area": "",
        "address": "宜蘭縣宜蘭市中山路3段179號",
        "telNo": "03-9322369",
        "hospAlliance": "",
        "endContract": false
      }
    },
    {
      "type": "Feature",
      "geometry": {
        "type": "Point",
        "coordinates": [
          121.753279,
          24.760813
        ]
      },
      "properties": {
        "id": "1580909152165",
        "name": "中興藥局",
        "poiId": "5934011403",
        "poiName": "中興藥局",
        "city": "宜蘭縣",
        "area": "",
        "address": "宜蘭縣宜蘭市中山路3段209號",
        "telNo": "03-9369769",
        "hospAlliance": "",
        "endContract": false
      }
    },
    {
      "type": "Feature",
      "geometry": {
        "type": "Point",
        "coordinates": [
          121.7534859,
          24.76148
        ]
      },
      "properties": {
        "id": "1580909152165",
        "name": "光得藥局",
        "poiId": "5934012259",
        "poiName": "光得藥局",
        "city": "宜蘭縣",
        "area": "",
        "address": "宜蘭縣宜蘭市中山路3段225號",
        "telNo": "03-9356584",
        "hospAlliance": "",
        "endContract": false
      }
    },
    {
      "type": "Feature",
      "geometry": {
        "type": "Point",
        "coordinates": [
          121.75356,
          24.76152
        ]
      },
      "properties": {
        "id": "1580909152165",
        "name": "宜芳藥局",
        "poiId": "5934011761",
        "poiName": "宜芳藥局",
        "city": "宜蘭縣",
        "area": "",
        "address": "宜蘭縣宜蘭市中山路3段229號",
        "telNo": "03-9315540",
        "hospAlliance": "",
        "endContract": false
      }
    },
    {
      "type": "Feature",
      "geometry": {
        "type": "Point",
        "coordinates": [
          121.752365,
          24.756139
        ]
      },
      "properties": {
        "id": "1580909152165",
        "name": "圓滿堂藥局",
        "poiId": "5934010086",
        "poiName": "圓滿堂藥局",
        "city": "宜蘭縣",
        "area": "",
        "address": "宜蘭縣宜蘭市中山路3段48號",
        "telNo": "03-9323413",
        "hospAlliance": "",
        "endContract": false
      }
    },
    {
      "type": "Feature",
      "geometry": {
        "type": "Point",
        "coordinates": [
          121.747129,
          24.751816
        ]
      },
      "properties": {
        "id": "1580909152165",
        "name": "順利藥局",
        "poiId": "5934012204",
        "poiName": "順利藥局",
        "city": "宜蘭縣",
        "area": "",
        "address": "宜蘭縣宜蘭市民族里民族路290號2樓",
        "telNo": "03-9333060",
        "hospAlliance": "",
        "endContract": false
      }
    }]
}
